Gas,Brake,Fuel,Gear,Rpms,SteerAngle,SpeedKmh,Velocity,AccG,WheelSlip,WheelLoad,WheelsPressure,WheelAngularSpeed,TyreWear,TyreDirtyLevel,TyreCoreTemperature,CamberRad,SuspensionTravel,DRS,TC,Heading,Pitch,Roll,CgHeight,CarDamage,NumberOfTyresOut,PitLimiterOn,Abs,Status,Session,CurrentTime,LastTime,BestTime,Split,CompletedLaps,Position,CurrentTimeValue,LastTimeValue,BestTimeValue,SessionTimeLeft,DistanceTraveled,IsInPit,CurrentSectorIndex,LastSectorTime,NumberOfLaps,TyreCompound,ReplayTimeMultiplier,NormalizedCarPosition,CarCoordinates,
0,0,30,3,4958,0,64.47122,-6.856102:-0.03535887:-16.54428:,-0.5455827:0.0275194:-0.1927037:,0.04287332:0.04451561:0.2783331:0.2340562:,2813.353:1909.779:3731.269:2010.685:,37.68774:33.78532:32.86655:32.15519:,1.757522:2.263404E-18:1.137154E-41:7.375374E-39:,99.46696:99.44215:100:100:,0:0:0:0:,99.04836:74.65825:68.91594:64.46993:,0.01189551:0.01331416:-0.02916128:0.04839509:,0.1424242:0.1234957:0.1574902:0.1402906:,0,0.11,2.785802,-0.002099111,0.01424406,0.4081516,0:0:0:0:0:,0,0,0.13,3,0,1:20:868,1:53:296,1:53:296,52.6,1,1,80868,113296,113296,-4202831,4655.413,0,1,52688,5,Street,1,0.8578336,18.61377:5.399961:199.1312:,
0,0,30,3,4958,0,64.47122,-6.856102:-0.03535887:-16.54428:,-0.5455827:0.0275194:-0.1927037:,0.04287332:0.04451561:0.2783331:0.2340562:,2813.353:1909.779:3731.269:2010.685:,37.68774:33.78532:32.86655:32.15519:,1.757522:2.263404E-18:1.137154E-41:7.375374E-39:,99.46696:99.44215:100:100:,0:0:0:0:,99.04836:74.65825:68.91594:64.46993:,0.01189551:0.01331416:-0.02916128:0.04839509:,0.1424242:0.1234957:0.1574902:0.1402906:,0,0.11,2.785802,-0.002099111,0.01424406,0.4081516,0:0:0:0:0:,0,0,0.13,3,0,1:20:868,1:53:296,1:53:296,52.6,1,1,80868,113296,113296,-4203025,4655.413,0,1,52688,5,Street,1,0.8578336,18.61377:5.399961:199.1312:,
0,0,30,3,4958,0,64.47122,-6.856102:-0.03535887:-16.54428:,-0.5455827:0.0275194:-0.1927037:,0.04287332:0.04451561:0.2783331:0.2340562:,2813.353:1909.779:3731.269:2010.685:,37.68774:33.78532:32.86655:32.15519:,1.757522:2.263404E-18:1.137154E-41:7.375374E-39:,99.46696:99.44215:100:100:,0:0:0:0:,99.04836:74.65825:68.91594:64.46993:,0.01189551:0.01331416:-0.02916128:0.04839509:,0.1424242:0.1234957:0.1574902:0.1402906:,0,0.11,2.785802,-0.002099111,0.01424406,0.4081516,0:0:0:0:0:,0,0,0.13,3,0,1:20:868,1:53:296,1:53:296,52.6,1,1,80868,113296,113296,-4203222,4655.413,0,1,52688,5,Street,1,0.8578336,18.61377:5.399961:199.1312:,
0,0,30,3,4958,0,64.47122,-6.856102:-0.03535887:-16.54428:,-0.5455827:0.0275194:-0.1927037:,0.04287332:0.04451561:0.2783331:0.2340562:,2813.353:1909.779:3731.269:2010.685:,37.68774:33.78532:32.86655:32.15519:,1.757522:2.263404E-18:1.137154E-41:7.375374E-39:,99.46696:99.44215:100:100:,0:0:0:0:,99.04836:74.65825:68.91594:64.46993:,0.01189551:0.01331416:-0.02916128:0.04839509:,0.1424242:0.1234957:0.1574902:0.1402906:,0,0.11,2.785802,-0.002099111,0.01424406,0.4081516,0:0:0:0:0:,0,0,0.13,3,0,1:20:868,1:53:296,1:53:296,52.6,1,1,80868,113296,113296,-4203416,4655.413,0,1,52688,5,Street,1,0.8578336,18.61377:5.399961:199.1312:,
0,0,30,3,4958,0,64.47122,-6.856102:-0.03535887:-16.54428:,-0.5455827:0.0275194:-0.1927037:,0.04287332:0.04451561:0.2783331:0.2340562:,2813.353:1909.779:3731.269:2010.685:,37.68774:33.78532:32.86655:32.15519:,1.757522:2.263404E-18:1.137154E-41:7.375374E-39:,99.46696:99.44215:100:100:,0:0:0:0:,99.04836:74.65825:68.91594:64.46993:,0.01189551:0.01331416:-0.02916128:0.04839509:,0.1424242:0.1234957:0.1574902:0.1402906:,0,0.11,2.785802,-0.002099111,0.01424406,0.4081516,0:0:0:0:0:,0,0,0.13,3,0,1:20:868,1:53:296,1:53:296,52.6,1,1,80868,113296,113296,-4203613,4655.413,0,1,52688,5,Street,1,0.8578336,18.61377:5.399961:199.1312:,
0,0,30,3,4958,0,64.47122,-6.856102:-0.03535887:-16.54428:,-0.5455827:0.0275194:-0.1927037:,0.04287332:0.04451561:0.2783331:0.2340562:,2813.353:1909.779:3731.269:2010.685:,37.68774:33.78532:32.86655:32.15519:,1.757522:2.263404E-18:1.137154E-41:7.375374E-39:,99.46696:99.44215:100:100:,0:0:0:0:,99.04836:74.65825:68.91594:64.46993:,0.01189551:0.01331416:-0.02916128:0.04839509:,0.1424242:0.1234957:0.1574902:0.1402906:,0,0.11,2.785802,-0.002099111,0.01424406,0.4081516,0:0:0:0:0:,0,0,0.13,3,0,1:20:868,1:53:296,1:53:296,52.6,1,1,80868,113296,113296,-4203807,4655.413,0,1,52688,5,Street,1,0.8578336,18.61377:5.399961:199.1312:,
0,0,30,3,4958,0,64.47122,-6.856102:-0.03535887:-16.54428:,-0.5455827:0.0275194:-0.1927037:,0.04287332:0.04451561:0.2783331:0.2340562:,2813.353:1909.779:3731.269:2010.685:,37.68774:33.78532:32.86655:32.15519:,1.757522:2.263404E-18:1.137154E-41:7.375374E-39:,99.46696:99.44215:100:100:,0:0:0:0:,99.04836:74.65825:68.91594:64.46993:,0.01189551:0.01331416:-0.02916128:0.04839509:,0.1424242:0.1234957:0.1574902:0.1402906:,0,0.11,2.785802,-0.002099111,0.01424406,0.4081516,0:0:0:0:0:,0,0,0.13,3,0,1:20:868,1:53:296,1:53:296,52.6,1,1,80868,113296,113296,-4204034,4655.413,0,1,52688,5,Street,1,0.8578336,18.61377:5.399961:199.1312:,
0,0,30,3,4958,0,64.47122,-6.856102:-0.03535887:-16.54428:,-0.5455827:0.0275194:-0.1927037:,0.04287332:0.04451561:0.2783331:0.2340562:,2813.353:1909.779:3731.269:2010.685:,37.68774:33.78532:32.86655:32.15519:,1.757522:2.263404E-18:1.137154E-41:7.375374E-39:,99.46696:99.44215:100:100:,0:0:0:0:,99.04836:74.65825:68.91594:64.46993:,0.01189551:0.01331416:-0.02916128:0.04839509:,0.1424242:0.1234957:0.1574902:0.1402906:,0,0.11,2.785802,-0.002099111,0.01424406,0.4081516,0:0:0:0:0:,0,0,0.13,3,0,1:20:868,1:53:296,1:53:296,52.6,1,1,80868,113296,113296,-4204230,4655.413,0,1,52688,5,Street,1,0.8578336,18.61377:5.399961:199.1312:,
0,0,30,3,4958,0,64.47122,-6.856102:-0.03535887:-16.54428:,-0.5455827:0.0275194:-0.1927037:,0.04287332:0.04451561:0.2783331:0.2340562:,2813.353:1909.779:3731.269:2010.685:,37.68774:33.78532:32.86655:32.15519:,1.757522:2.263404E-18:1.137154E-41:7.375374E-39:,99.46696:99.44215:100:100:,0:0:0:0:,99.04836:74.65825:68.91594:64.46993:,0.01189551:0.01331416:-0.02916128:0.04839509:,0.1424242:0.1234957:0.1574902:0.1402906:,0,0.11,2.785802,-0.002099111,0.01424406,0.4081516,0:0:0:0:0:,0,0,0.13,3,0,1:20:868,1:53:296,1:53:296,52.6,1,1,80868,113296,113296,-4204427,4655.413,0,1,52688,5,Street,1,0.8578336,18.61377:5.399961:199.1312:,
0,0,30,3,4958,0,64.47122,-6.856102:-0.03535887:-16.54428:,-0.5455827:0.0275194:-0.1927037:,0.04287332:0.04451561:0.2783331:0.2340562:,2813.353:1909.779:3731.269:2010.685:,37.68774:33.78532:32.86655:32.15519:,1.757522:2.263404E-18:1.137154E-41:7.375374E-39:,99.46696:99.44215:100:100:,0:0:0:0:,99.04836:74.65825:68.91594:64.46993:,0.01189551:0.01331416:-0.02916128:0.04839509:,0.1424242:0.1234957:0.1574902:0.1402906:,0,0.11,2.785802,-0.002099111,0.01424406,0.4081516,0:0:0:0:0:,0,0,0.13,3,0,1:20:868,1:53:296,1:53:296,52.6,1,1,80868,113296,113296,-4204622,4655.413,0,1,52688,5,Street,1,0.8578336,18.61377:5.399961:199.1312:,
0,0,30,3,4958,0,64.47122,-6.856102:-0.03535887:-16.54428:,-0.5455827:0.0275194:-0.1927037:,0.04287332:0.04451561:0.2783331:0.2340562:,2813.353:1909.779:3731.269:2010.685:,37.68774:33.78532:32.86655:32.15519:,1.757522:2.263404E-18:1.137154E-41:7.375374E-39:,99.46696:99.44215:100:100:,0:0:0:0:,99.04836:74.65825:68.91594:64.46993:,0.01189551:0.01331416:-0.02916128:0.04839509:,0.1424242:0.1234957:0.1574902:0.1402906:,0,0.11,2.785802,-0.002099111,0.01424406,0.4081516,0:0:0:0:0:,0,0,0.13,3,0,1:20:868,1:53:296,1:53:296,52.6,1,1,80868,113296,113296,-4204818,4655.413,0,1,52688,5,Street,1,0.8578336,18.61377:5.399961:199.1312:,
0,0,30,3,4958,0,64.47122,-6.856102:-0.03535887:-16.54428:,-0.5455827:0.0275194:-0.1927037:,0.04287332:0.04451561:0.2783331:0.2340562:,2813.353:1909.779:3731.269:2010.685:,37.68774:33.78532:32.86655:32.15519:,1.757522:2.263404E-18:1.137154E-41:7.375374E-39:,99.46696:99.44215:100:100:,0:0:0:0:,99.04836:74.65825:68.91594:64.46993:,0.01189551:0.01331416:-0.02916128:0.04839509:,0.1424242:0.1234957:0.1574902:0.1402906:,0,0.11,2.785802,-0.002099111,0.01424406,0.4081516,0:0:0:0:0:,0,0,0.13,3,0,1:20:868,1:53:296,1:53:296,52.6,1,1,80868,113296,113296,-4205012,4655.413,0,1,52688,5,Street,1,0.8578336,18.61377:5.399961:199.1312:,
0,0,30,3,4958,0,64.47122,-6.856102:-0.03535887:-16.54428:,-0.5455827:0.0275194:-0.1927037:,0.04287332:0.04451561:0.2783331:0.2340562:,2813.353:1909.779:3731.269:2010.685:,37.68774:33.78532:32.86655:32.15519:,1.757522:2.263404E-18:1.137154E-41:7.375374E-39:,99.46696:99.44215:100:100:,0:0:0:0:,99.04836:74.65825:68.91594:64.46993:,0.01189551:0.01331416:-0.02916128:0.04839509:,0.1424242:0.1234957:0.1574902:0.1402906:,0,0.11,2.785802,-0.002099111,0.01424406,0.4081516,0:0:0:0:0:,0,0,0.13,3,0,1:20:868,1:53:296,1:53:296,52.6,1,1,80868,113296,113296,-4205208,4655.413,0,1,52688,5,Street,1,0.8578336,18.61377:5.399961:199.1312:,
0,0,30,3,4958,0,64.47122,-6.856102:-0.03535887:-16.54428:,-0.5455827:0.0275194:-0.1927037:,0.04287332:0.04451561:0.2783331:0.2340562:,2813.353:1909.779:3731.269:2010.685:,37.68774:33.78532:32.86655:32.15519:,1.757522:2.263404E-18:1.137154E-41:7.375374E-39:,99.46696:99.44215:100:100:,0:0:0:0:,99.04836:74.65825:68.91594:64.46993:,0.01189551:0.01331416:-0.02916128:0.04839509:,0.1424242:0.1234957:0.1574902:0.1402906:,0,0.11,2.785802,-0.002099111,0.01424406,0.4081516,0:0:0:0:0:,0,0,0.13,3,0,1:20:868,1:53:296,1:53:296,52.6,1,1,80868,113296,113296,-4205437,4655.413,0,1,52688,5,Street,1,0.8578336,18.61377:5.399961:199.1312:,
0,0,30,3,4958,0,64.47122,-6.856102:-0.03535887:-16.54428:,-0.5455827:0.0275194:-0.1927037:,0.04287332:0.04451561:0.2783331:0.2340562:,2813.353:1909.779:3731.269:2010.685:,37.68774:33.78532:32.86655:32.15519:,1.757522:2.263404E-18:1.137154E-41:7.375374E-39:,99.46696:99.44215:100:100:,0:0:0:0:,99.04836:74.65825:68.91594:64.46993:,0.01189551:0.01331416:-0.02916128:0.04839509:,0.1424242:0.1234957:0.1574902:0.1402906:,0,0.11,2.785802,-0.002099111,0.01424406,0.4081516,0:0:0:0:0:,0,0,0.13,3,0,1:20:868,1:53:296,1:53:296,52.6,1,1,80868,113296,113296,-4205634,4655.413,0,1,52688,5,Street,1,0.8578336,18.61377:5.399961:199.1312:,
0,0,30,3,4958,0,64.47122,-6.856102:-0.03535887:-16.54428:,-0.5455827:0.0275194:-0.1927037:,0.04287332:0.04451561:0.2783331:0.2340562:,2813.353:1909.779:3731.269:2010.685:,37.68774:33.78532:32.86655:32.15519:,1.757522:2.263404E-18:1.137154E-41:7.375374E-39:,99.46696:99.44215:100:100:,0:0:0:0:,99.04836:74.65825:68.91594:64.46993:,0.01189551:0.01331416:-0.02916128:0.04839509:,0.1424242:0.1234957:0.1574902:0.1402906:,0,0.11,2.785802,-0.002099111,0.01424406,0.4081516,0:0:0:0:0:,0,0,0.13,3,0,1:20:868,1:53:296,1:53:296,52.6,1,1,80868,113296,113296,-4205829,4655.413,0,1,52688,5,Street,1,0.8578336,18.61377:5.399961:199.1312:,
0,0,30,3,4958,0,64.47122,-6.856102:-0.03535887:-16.54428:,-0.5455827:0.0275194:-0.1927037:,0.04287332:0.04451561:0.2783331:0.2340562:,2813.353:1909.779:3731.269:2010.685:,37.68774:33.78532:32.86655:32.15519:,1.757522:2.263404E-18:1.137154E-41:7.375374E-39:,99.46696:99.44215:100:100:,0:0:0:0:,99.04836:74.65825:68.91594:64.46993:,0.01189551:0.01331416:-0.02916128:0.04839509:,0.1424242:0.1234957:0.1574902:0.1402906:,0,0.11,2.785802,-0.002099111,0.01424406,0.4081516,0:0:0:0:0:,0,0,0.13,3,0,1:20:868,1:53:296,1:53:296,52.6,1,1,80868,113296,113296,-4206026,4655.413,0,1,52688,5,Street,1,0.8578336,18.61377:5.399961:199.1312:,
0,0,30,3,4958,0,64.47122,-6.856102:-0.03535887:-16.54428:,-0.5455827:0.0275194:-0.1927037:,0.04287332:0.04451561:0.2783331:0.2340562:,2813.353:1909.779:3731.269:2010.685:,37.68774:33.78532:32.86655:32.15519:,1.757522:2.263404E-18:1.137154E-41:7.375374E-39:,99.46696:99.44215:100:100:,0:0:0:0:,99.04836:74.65825:68.91594:64.46993:,0.01189551:0.01331416:-0.02916128:0.04839509:,0.1424242:0.1234957:0.1574902:0.1402906:,0,0.11,2.785802,-0.002099111,0.01424406,0.4081516,0:0:0:0:0:,0,0,0.13,3,0,1:20:868,1:53:296,1:53:296,52.6,1,1,80868,113296,113296,-4206222,4655.413,0,1,52688,5,Street,1,0.8578336,18.61377:5.399961:199.1312:,
0,0,30,3,4958,0,64.47122,-6.856102:-0.03535887:-16.54428:,-0.5455827:0.0275194:-0.1927037:,0.04287332:0.04451561:0.2783331:0.2340562:,2813.353:1909.779:3731.269:2010.685:,37.68774:33.78532:32.86655:32.15519:,1.757522:2.263404E-18:1.137154E-41:7.375374E-39:,99.46696:99.44215:100:100:,0:0:0:0:,99.04836:74.65825:68.91594:64.46993:,0.01189551:0.01331416:-0.02916128:0.04839509:,0.1424242:0.1234957:0.1574902:0.1402906:,0,0.11,2.785802,-0.002099111,0.01424406,0.4081516,0:0:0:0:0:,0,0,0.13,3,0,1:20:868,1:53:296,1:53:296,52.6,1,1,80868,113296,113296,-4206417,4655.413,0,1,52688,5,Street,1,0.8578336,18.61377:5.399961:199.1312:,
0,0,30,3,4958,0,64.47122,-6.856102:-0.03535887:-16.54428:,-0.5455827:0.0275194:-0.1927037:,0.04287332:0.04451561:0.2783331:0.2340562:,2813.353:1909.779:3731.269:2010.685:,37.68774:33.78532:32.86655:32.15519:,1.757522:2.263404E-18:1.137154E-41:7.375374E-39:,99.46696:99.44215:100:100:,0:0:0:0:,99.04836:74.65825:68.91594:64.46993:,0.01189551:0.01331416:-0.02916128:0.04839509:,0.1424242:0.1234957:0.1574902:0.1402906:,0,0.11,2.785802,-0.002099111,0.01424406,0.4081516,0:0:0:0:0:,0,0,0.13,3,0,1:20:868,1:53:296,1:53:296,52.6,1,1,80868,113296,113296,-4206614,4655.413,0,1,52688,5,Street,1,0.8578336,18.61377:5.399961:199.1312:,
0,0,30,3,4958,0,64.47122,-6.856102:-0.03535887:-16.54428:,-0.5455827:0.0275194:-0.1927037:,0.04287332:0.04451561:0.2783331:0.2340562:,2813.353:1909.779:3731.269:2010.685:,37.68774:33.78532:32.86655:32.15519:,1.757522:2.263404E-18:1.137154E-41:7.375374E-39:,99.46696:99.44215:100:100:,0:0:0:0:,99.04836:74.65825:68.91594:64.46993:,0.01189551:0.01331416:-0.02916128:0.04839509:,0.1424242:0.1234957:0.1574902:0.1402906:,0,0.11,2.785802,-0.002099111,0.01424406,0.4081516,0:0:0:0:0:,0,0,0.13,3,0,1:20:868,1:53:296,1:53:296,52.6,1,1,80868,113296,113296,-4206811,4655.413,0,1,52688,5,Street,1,0.8578336,18.61377:5.399961:199.1312:,
0,0,30,3,4958,0,64.47122,-6.856102:-0.03535887:-16.54428:,-0.5455827:0.0275194:-0.1927037:,0.04287332:0.04451561:0.2783331:0.2340562:,2813.353:1909.779:3731.269:2010.685:,37.68774:33.78532:32.86655:32.15519:,1.757522:2.263404E-18:1.137154E-41:7.375374E-39:,99.46696:99.44215:100:100:,0:0:0:0:,99.04836:74.65825:68.91594:64.46993:,0.01189551:0.01331416:-0.02916128:0.04839509:,0.1424242:0.1234957:0.1574902:0.1402906:,0,0.11,2.785802,-0.002099111,0.01424406,0.4081516,0:0:0:0:0:,0,0,0.13,3,0,1:20:868,1:53:296,1:53:296,52.6,1,1,80868,113296,113296,-4207038,4655.413,0,1,52688,5,Street,1,0.8578336,18.61377:5.399961:199.1312:,
0,0,30,3,4903,0,63.80122,-6.259403:0.02053802:-16.58037:,-0.4456264:0.03372822:-0.1568394:,0.0717177:0.06674467:0.175665:0.1186956:,3040.801:1614.143:3572.311:1888.208:,37.67043:33.77544:32.86337:32.15092:,1.757522:2.263404E-18:1.137154E-41:7.375374E-39:,99.46693:99.44212:100:100:,0:0:0:0:,98.94019:74.59653:68.89609:64.44324:,0.01365453:0.02384649:-0.02186159:0.05257061:,0.1606368:0.1303437:0.1583086:0.12852:,0,0.11,2.7982,-0.009743283,0.0227045,0.4067335,0:0:0:0:0:,0,0,0.13,2,0,1:20:972,1:53:296,1:53:296,52.6,1,1,80972,113296,113296,-4207231,4657.262,0,1,52688,5,Street,1,0.8585845,17.9332:5.399176:197.4083:,
0.352,0,30,3,4986,0,62.99902,-5.873292:0.001913767:-16.48469:,-0.01622761:-0.01175463:0.07982562:,0.007267431:0.005308792:0.05990892:0.05709039:,2158.96:2072:2765.664:2903.071:,37.63792:33.75496:32.85116:32.13781:,1.757522:2.263404E-18:1.137154E-41:7.375374E-39:,99.46691:99.44209:100:100:,0:0:0:0:,98.73699:74.46848:68.81977:64.36134:,-0.000345267:0.009043126:-0.03184275:0.03943864:,0.1486068:0.139991:0.143591:0.135059:,0,0.11,2.798301,-0.01062107,0.004648493,0.4096899,0:0:0:0:0:,0,0,0.13,2,0,1:21:164,1:53:296,1:53:296,52.6,1,1,81164,113296,113296,-4207424,4660.636,0,1,52688,5,Street,1,0.8599385,16.78145:5.401668:194.2366:,
0,0,30,3,4902,0,64.28421,-6.00202:0.006041134:-16.8178:,0.009011203:-0.0316342:-0.1048503:,0.008964325:0.002816649:0.06220192:0.06839675:,1682.805:1830.815:3203.272:3051.131:,37.60363:33.73369:32.8364:32.12535:,1.757522:2.263404E-18:1.137154E-41:7.375374E-39:,99.4669:99.44209:100:100:,0:0:0:0:,98.5227:74.33556:68.72749:64.28343:,0.0009765625:-0.003890964:-0.03820077:0.03856425:,0.1299388:0.1301268:0.1454081:0.1477591:,0,0.11,2.798156,-0.001381072,-0.002186082,0.4113703,0:0:0:0:0:,0,0,0.13,2,0,1:21:352,1:53:296,1:53:296,52.6,1,1,81352,113296,113296,-4207614,4663.955,0,1,52688,5,Street,1,0.861252,15.6686:5.40293:191.1138:,
0,0.7973011,30,3,4494,0,60.84216,-5.690892:-0.04995528:-15.91357:,0.004559055:-0.0002292637:-0.7273505:,0.2357456:0.222293:0.2015361:0.2320765:,2890.032:2854.845:2218.269:2092.758:,37.57206:33.71581:32.82162:32.11342:,1.757522:2.263404E-18:1.137154E-41:7.375374E-39:,99.46677:99.44195:100:100:,0:0:0:0:,98.32539:74.22378:68.63516:64.2089:,-0.005694297:0.005132768:-0.02966794:0.02981026:,0.1550956:0.1556998:0.1335593:0.1342984:,0,0.11,2.79807,-0.02107355,-0.001034868,0.4084711,0:0:0:0:0:,0,0,0.13,2,0,1:21:576,1:53:296,1:53:296,52.6,1,1,81576,113296,113296,-4207838,4667.879,0,1,52688,5,Street,1,0.8628387,14.34616:5.397746:187.411:,
0,0.7278338,30,3,4047,-0.1092606,54.94916,-5.243693:0.05524878:-14.33457:,0.2335697:-0.03827503:-0.6457307:,0.235192:0.2220297:0.2722695:0.2909109:,2519.967:2911.314:2047.889:2348.092:,37.5519:33.70987:32.80745:32.10222:,1.757522:2.263404E-18:1.137154E-41:7.375374E-39:,99.46658:99.44176:100:100:,0:0:0:0:,98.19938:74.18671:68.54659:64.1389:,-0.01535192:0.01312478:-0.02485027:0.02258844:,0.1723433:0.1746922:0.1232043:0.1252988:,0,0.11,2.795351,-0.02979339,-0.001403338,0.406776,0:0:0:0:0:,0,0,0.13,2,0,1:21:768,1:53:296,1:53:296,52.6,1,1,81768,113296,113296,-4208030,4670.96,0,1,52688,5,Street,1,0.8641242,13.30492:5.396626:184.5062:,
1,0.6512317,30,1,5116,0,50.6951,-5.292568:0.009146035:-13.04954:,0.1485007:-0.02123477:-0.7104106:,0.2632464:0.3412274:0.1894203:0.2184754:,2320.277:2467.209:2385.991:2879.447:,37.53247:33.70724:32.79238:32.09088:,1.757522:2.263404E-18:1.137154E-41:7.375374E-39:,99.46639:99.44159:100:100:,0:0:0:0:,98.07792:74.17029:68.45237:64.06801:,-0.01633755:0.000345267:-0.03590804:0.02028019:,0.1520109:0.1669444:0.1200676:0.1361783:,0,0.11,2.743273,-0.02283614,-0.01000411,0.4100494,0:0:0:0:0:,0,0,0.13,2,0,1:21:960,1:53:296,1:53:296,52.6,1,1,81960,113296,113296,-4208222,4673.78,0,1,52688,5,Street,1,0.8653229,12.29501:5.403798:181.8771:,
0,0.7959666,30,2,5220,0,44.18387,-4.841602:-0.009054039:-11.27797:,0.08266139:-0.02554562:-0.9558734:,0.559661:0.4947799:0.1645132:0.1981158:,2813.282:3172.615:2037.086:2031.335:,37.51099:33.7014:32.77619:32.07892:,1.757522:2.263404E-18:1.137154E-41:7.375374E-39:,99.46612:99.44135:100:100:,0:0:0:0:,97.9437:74.13377:68.3512:63.99324:,-0.01671625:0.007485227:-0.0284326:0.01996321:,0.1663346:0.1735762:0.1160939:0.1247076:,0,0.11,2.733521,-0.032609,-0.005466603,0.4105229,0:0:0:0:0:,0,0,0.13,2,0,1:22:156,1:53:296,1:53:296,52.6,1,1,82156,113296,113296,-4208416,4676.394,0,1,52688,5,Street,1,0.8664511,11.2897:5.404446:179.4605:,
0,0,30,2,4697,0,39.50434,-4.335618:-0.02136805:-10.08058:,-0.08264524:-0.05470638:-0.04395305:,0.1880022:0.2425866:0.104859:0.07707052:,2241.269:2214.511:2566.256:2389.185:,37.49249:33.69611:32.75857:32.06428:,1.757522:2.263404E-18:1.137154E-41:7.375374E-39:,99.46596:99.44111:100:100:,0:0:0:0:,97.82803:74.10069:68.24107:63.90176:,-0.01057447:0.01244407:-0.02297309:0.02464311:,0.1671663:0.1654678:0.1218677:0.12104:,0,0.11,2.741518,-0.02913841,0.001810817,0.4117517,0:0:0:0:0:,0,0,0.13,2,0,1:22:352,1:53:296,1:53:296,52.6,1,1,82352,113296,113296,-4208614,4678.665,0,1,52688,5,Street,1,0.8674331,10.38869:5.405071:177.376:,
0,0,30,2,4506,0,38.4618,-4.166121:-0.003094301:-9.838075:,0.007682532:0.04757306:-0.1160451:,0.004638476:0.007733576:0.03706334:0.04412906:,2210.982:2248.907:2874.65:3057.946:,37.46788:33.68481:32.74182:32.04975:,1.757522:2.263404E-18:1.137154E-41:7.375374E-39:,99.46593:99.44107:100:100:,0:0:0:0:,97.67427:74.03007:68.13639:63.81094:,-0.002847146:0.003588122:-0.0337937:0.03526811:,0.1475893:0.1462191:0.1419563:0.1405929:,0,0.11,2.739791,-0.01206875,0.001180183,0.4072652,0:0:0:0:0:,0,0,0.13,2,0,1:22:552,1:53:296,1:53:296,52.6,1,1,82552,113296,113296,-4208815,4680.842,0,1,52688,5,Street,1,0.8683648,9.53896:5.398586:175.38:,
0.7519996,0,30,2,4973,0.2296392,38.99973,-3.891557:0.0223355:-10.11013:,-0.3494285:0.0366314:0.3882592:,0.2170864:0.2463074:0.1708582:0.271809:,2640.605:1381.567:3592.459:2829.629:,37.4362:33.66602:32.72691:32.03721:,1.757522:2.263404E-18:1.137154E-41:7.375374E-39:,99.46587:99.44102:100:100:,0:0:0:0:,97.47628:73.91263:68.04321:63.73255:,0.004128796:0.0009134906:-0.02904657:0.04079989:,0.1443453:0.1324962:0.148881:0.1372169:,0,0.11,2.761836,-0.005290606,0.0104549,0.40939,0:0:0:0:0:,0,0,0.13,2,0,1:22:756,1:53:296,1:53:296,52.6,1,1,82756,113296,113296,-4209015,4683.021,0,1,52688,5,Street,1,0.8692782,8.705864:5.399307:173.3695:,
1,0,30,2,5528,0.4568224,42.47834,-3.287015:0.01136024:-11.33245:,-0.5947328:-0.03567284:0.5526745:,0.5340535:0.6935052:0.2743358:0.4966068:,2532.049:109.3747:4386.944:2865.81:,37.40767:33.64588:32.71462:32.02773:,1.757522:2.263404E-18:1.137154E-41:7.375374E-39:,99.46568:99.4408:100:100:,0:0:0:0:,97.29794:73.78677:67.96639:63.67327:,0.01314747:-0.004931404:-0.02570629:0.05326702:,0.1308891:0.1032904:0.1660849:0.1356377:,0,0.11,2.851399,0.009195493,0.02298505,0.4135432,0:0:0:0:0:,0,0,0.13,2,0,1:22:956,1:53:296,1:53:296,52.6,1,1,82956,113296,113296,-4209217,4685.269,0,1,52688,5,Street,1,0.8702027,7.969386:5.405091:171.2537:,
1,0,30,2,5398,0.6801426,45.00493,-2.102233:-0.01759677:-12.32333:,-0.8354346:-0.04793016:-0.0689098:,0.9579548:1.304388:0.2294408:0.1744184:,3115.257:794.6331:4022.912:1976.275:,37.39071:33.62604:32.70608:32.02136:,1.757522:2.263404E-18:1.137154E-41:7.375374E-39:,99.46526:99.44031:100:100:,0:0:0:0:,97.19196:73.66276:67.91299:63.6335:,0.01540231:-0.0274816:-0.02027431:0.05732217:,0.1397316:0.1046905:0.1650627:0.1267409:,0,0.11,2.97074,0.0007195941,0.02859322,0.4149914,0:0:0:0:0:,0,0,0.13,2,0,1:23:160,1:53:296,1:53:296,52.6,1,1,83160,113296,113296,-4209420,4687.751,0,1,52688,5,Street,1,0.8712174,7.387895:5.406573:168.8377:,
1,0,30,2,5641,0.9,45.86887,-0.4610707:0.02818636:-12.73298:,-0.8386648:-0.03441757:0.1728652:,1.382429:0.2808635:0.3260058:0.5070628:,2959.835:0:4535.234:1832.66:,37.39264:33.61421:32.69883:32.01239:,1.757522:2.263404E-18:1.137154E-41:7.375374E-39:,99.46458:99.43955:100:100:,0:0:0:0:,97.20397:73.58882:67.8677:63.57744:,0.03275637:-0.03678557:-0.008849916:0.04147958:,0.1466882:0.111808:0.1688427:0.1133551:,0,0.11,3.119382,-0.002283582,0.04367632,0.4171233,0:0:0:0:0:,0,0,0.13,2,0,1:23:360,1:53:296,1:53:296,52.6,1,1,83360,113296,113296,-4209623,4690.259,0,1,52688,5,Street,1,0.8722355,7.108976:5.404944:166.343:,
1,0,30,2,5933,0.9,45.92711,1.280054:-0.006188468:-12.69315:,-0.8042492:-0.1542162:-0.06284094:,1.636321:0.2831916:0.3087896:0.2042212:,3654.347:0:4624.458:0:,37.40898:33.60532:32.69471:32.002:,1.757522:2.263404E-18:1.137154E-41:7.375374E-39:,99.46366:99.43931:100:100:,0:0:0:0:,97.30614:73.53322:67.84192:63.51249:,0.05638757:-0.03062114:0.01563279:0.07573792:,0.1514138:0.1046682:0.1696662:0.108676:,0,0.11,-3.023997,-0.007519433,0.06370483,0.4234381,0:0:0:0:0:,0,0,0.13,2,0,1:23:564,1:53:296,1:53:296,52.6,1,1,83564,113296,113296,-4209826,4692.859,0,1,52688,5,Street,1,0.8732858,7.169784:5.403661:163.7409:,
1,0,30,2,5828,0.3581998,45.21774,2.952027:-0.07102799:-12.20845:,-0.9107168:-0.0306907:-0.006944209:,0.9744514:0.01530882:0.3451766:0.2763913:,4047.999:0:4264.824:1436.549:,37.43083:33.59295:32.6928:31.9901:,1.757522:2.263404E-18:1.137154E-41:7.375374E-39:,99.46281:99.43909:100:100:,0:0:0:0:,97.44269:73.45596:67.82999:63.43813:,0.0516321:0.1308356:0.02305339:0.1737966:,0.1659051:0.1201934:0.1587292:0.1056434:,0,0.11,-2.882989,-0.01763505,0.05895671,0.4157896,0:0:0:0:0:,0,0,0.13,2,0,1:23:764,1:53:296,1:53:296,52.6,1,1,83764,113296,113296,-4210025,4695.389,0,1,52688,5,Street,1,0.8743075,7.568733:5.387288:161.2361:,
1,0,30,2,5658,0.07526997,45.99806,4.439209:-0.04235035:-11.98121:,-0.412242:-0.1944125:0.08048798:,0.07466045:0.1064999:0.3736726:0.03926452:,2295.29:1240.928:3579.216:0:,37.42329:33.5751:32.69168:31.97804:,1.757522:2.263404E-18:1.137154E-41:7.375374E-39:,99.46261:99.43904:100:100:,0:0:0:0:,97.39557:73.34439:67.82301:63.36276:,0.0497811:-0.01692533:0.009309446:0.03241241:,0.149554:0.1107971:0.1624799:0.1226847:,0,0.11,-2.751217,-0.003106767,0.04574349,0.4156709,0:0:0:0:0:,0,0,0.13,2,0,1:23:960,1:53:296,1:53:296,52.6,1,1,83960,113296,113296,-4210223,4697.867,0,1,52688,5,Street,1,0.8752989,8.297599:5.378163:158.8708:,
1,0,30,2,5345,0.1598874,46.78342,5.688205:0.07517806:-11.68413:,-0.674103:-0.1043545:-0.3875021:,0.3058824:0.19423:0.2464744:0.1053299:,2571.466:3909.849:4010.991:4115.921:,37.40039:33.5557:32.68868:31.967:,1.757522:2.263404E-18:1.137154E-41:7.375374E-39:,99.46247:99.43897:100:100:,0:0:0:0:,97.25246:73.22313:67.80424:63.29376:,0.04579843:0.009543406:0.005930164:0.02910398:,0.1467388:0.1063554:0.1705968:0.1218784:,0,0.11,-2.68843,0.01081599,0.05088285,0.4043756,0:0:0:0:0:,0,0,0.13,2,0,1:24:156,1:53:296,1:53:296,52.6,1,1,84156,113296,113296,-4210419,4700.4,0,1,52688,5,Street,1,0.8763157,9.276802:5.385201:156.5408:,
1,0,30,2,5984,0,47.86473,6.22558:0.0190456:-11.74815:,-0.09465956:-0.2409139:0.2646284:,0.03347251:0.0692949:0.6022269:0.05211601:,1753.367:1175.854:2692.681:0:,37.37245:33.53462:32.68238:31.95695:,1.757522:2.263404E-18:1.137154E-41:7.375374E-39:,99.46243:99.43895:100:100:,0:0:0:0:,97.07783:73.0914:67.76489:63.23095:,0.01338114:-0.008673035:-0.01888926:0.03337656:,0.1406626:0.1238115:0.142474:0.1434769:,0,0.11,-2.644617,-0.002045955,0.01428164,0.4163017,0:0:0:0:0:,0,0,0.13,2,0,1:24:352,1:53:296,1:53:296,52.6,1,1,84352,113296,113296,-4210615,4702.942,0,1,52688,5,Street,1,0.8773389,10.4347:5.399631:154.2704:,
1,0,30,2,6674,0.2086454,51.18054,7.123243:0.004889702:-12.30355:,-0.3451303:-0.05281681:0.4889555:,0.2630998:0.3040618:0.1727999:0.5511091:,2061.859:1266.941:3573.424:3731.615:,37.34088:33.51367:32.67396:31.95129:,1.757522:2.263404E-18:1.137154E-41:7.375374E-39:,99.46234:99.43886:100:100:,0:0:0:0:,96.88052:72.96042:67.71224:63.19559:,0.007781942:-0.001760523:-0.03348712:-0.08676347:,0.1270734:0.1120616:0.1574666:0.1436025:,0,0.11,-2.625281,0.007686547,0.01116752,0.411396,0:0:0:0:0:,0,0,0.13,2,0,1:24:576,1:53:296,1:53:296,52.6,1,1,84576,113296,113296,-4210837,4706.017,0,1,52688,5,Street,1,0.8785703,11.91609:5.402092:151.5813:,
1,0,30,2,7101,0.4219735,55.16293,8.535517:0.002349535:-12.72558:,-0.6854126:-0.02188586:0.4781506:,0.6257228:0.7642149:0.3072307:0.3777919:,2651.552:663.358:3811.429:2887.199:,37.31541:33.49432:32.66779:31.94696:,1.757522:2.263404E-18:1.137154E-41:7.375374E-39:,99.46206:99.43852:100:100:,0:0:0:0:,96.72131:72.83948:67.67372:63.16853:,0.01063068:-0.007356715:-0.03089828:0.05202214:,0.1269077:0.1039479:0.1649755:0.1399492:,0,0.11,-2.543005,0.009832053,0.01832813,0.4132109,0:0:0:0:0:,0,0,0.13,2,0,1:24:768,1:53:296,1:53:296,52.6,1,1,84768,113296,113296,-4211030,4708.859,0,1,52688,5,Street,1,0.8797007,13.41033:5.406769:149.1648:,
1,0,30,2,7146,0.6320615,56.75539,10.09518:0.005182716:-12.10928:,-0.9609295:-0.0128106:-0.04644036:,1.029627:1.269522:0.2782263:0.2844523:,3556.155:1064.633:4110.204:1532.761:,37.3081:33.47725:32.66402:31.94234:,1.757522:2.263404E-18:1.137154E-41:7.375374E-39:,99.46146:99.43784:100:100:,0:0:0:0:,96.67564:72.73283:67.6501:63.13966:,0.0196229:-0.006632374:-0.01727737:0.06092043:,0.1465644:0.1052928:0.1672075:0.1225794:,0,0.11,-2.426318,-0.001352205,0.03337472,0.4138327,0:0:0:0:0:,0,0,0.13,2,0,1:24:956,1:53:296,1:53:296,52.6,1,1,84956,113296,113296,-4211218,4711.792,0,1,52688,5,Street,1,0.8808675,15.15183:5.408627:146.7986:,
1,0,30,2,7278,0.2371605,57.84195,11.63862:-0.02082279:-11.07688:,-1.005954:-0.07752997:0.121762:,0.8329735:0.7336717:0.3866735:0.3833771:,3356.698:299.6089:4101.116:1872.57:,37.32043:33.46511:32.66344:31.93564:,1.757522:2.263404E-18:1.137154E-41:7.375374E-39:,99.46069:99.43702:100:100:,0:0:0:0:,96.75272:72.65696:67.6465:63.09777:,0.02718938:0.02261745:-0.01165251:0.06054923:,0.1510977:0.1037628:0.166681:0.1151393:,0,0.11,-2.292621,-0.002600636,0.03854626,0.4157653,0:0:0:0:0:,0,0,0.13,2,0,1:25:172,1:53:296,1:53:296,52.6,1,1,85172,113296,113296,-4211433,4715.221,0,1,52688,5,Street,1,0.8822352,17.48077:5.408999:144.2801:,
1,0,30,2,7402,0,59.66407,13.07907:-0.009424335:-10.17909:,-0.6459484:-0.02154936:0.1613383:,0.07349714:0.08917782:0.295768:0.2223271:,2559.049:1130.087:3932.073:2462.123:,37.31149:33.44566:32.66569:31.93034:,1.757522:2.263404E-18:1.137154E-41:7.375374E-39:,99.46048:99.43687:100:100:,0:0:0:0:,96.69683:72.53538:67.66057:63.06462:,0.02516255:0.02388895:-0.02087976:0.05667662:,0.1460423:0.1074082:0.1649421:0.1229903:,0,0.11,-2.20434,0.0003191819,0.0299103,0.4136467,0:0:0:0:0:,0,0,0.13,2,0,1:25:348,1:53:296,1:53:296,52.6,1,1,85348,113296,113296,-4211610,4718.085,0,1,52688,5,Street,1,0.883384,19.65061:5.40714:142.4092:,
1,0,30,2,8025,0,63.08069,14.15713:-0.01451412:-10.32523:,-0.01303205:0.001019848:0.5791287:,0.01169185:0.02519999:0.2672339:0.2654551:,1526.885:1541.658:3456.885:3451.047:,37.28487:33.42455:32.66315:31.92461:,1.757522:2.263404E-18:1.137154E-41:7.375374E-39:,99.46045:99.43683:100:100:,0:0:0:0:,96.53047:72.4034:67.64468:63.02879:,0.00982651:0.002537184:-0.03787949:0.04498003:,0.1235515:0.1121902:0.1566296:0.1440113:,0,0.11,-2.205279,0.006121332,0.006882779,0.4137883,0:0:0:0:0:,0,0,0.13,2,0,1:25:548,1:53:296,1:53:296,52.6,1,1,85548,113296,113296,-4211811,4721.461,0,1,52688,5,Street,1,0.8847429,22.3488:5.406394:140.3852:,
0.08000001,0,30,2,7624,-0.1253381,64.93546,14.37373:-0.03338495:-10.89729:,0.3609036:-0.03210609:-0.3000639:,0.2038719:0.1866533:0.1271795:0.1308661:,1914.133:2579.659:2421.041:3251.15:,37.25288:33.40471:32.65644:31.92006:,1.757522:2.263404E-18:1.137154E-41:7.375374E-39:,99.46037:99.43676:100:100:,0:0:0:0:,96.33051:72.27942:67.60272:63.00039:,-0.001504984:-0.006632374:-0.04506347:0.03402928:,0.1154393:0.1249958:0.145734:0.1568746:,0,0.11,-2.218781,0.003252045,-0.009115748,0.4122596,0:0:0:0:0:,0,0,0.13,2,0,1:25:752,1:53:296,1:53:296,52.6,1,1,85752,113296,113296,-4212015,4725.109,0,1,52688,5,Street,1,0.8862175,25.28669:5.403053:138.2231:,
0.8799994,0,30,2,8107,0,64.7843,13.79182:0.03506091:-11.55974:,0.324975:0.04335346:0.2382789:,0.02562967:0.01992342:0.1923475:0.2172061:,1615.907:2428.445:2620.011:3691.633:,37.22266:33.39161:32.64263:31.91223:,1.757522:2.263404E-18:1.137154E-41:7.375374E-39:,99.46024:99.43664:100:100:,0:0:0:0:,96.14164:72.19753:67.51646:62.95144:,-0.02003772:-0.01354056:-0.04928512:0.02242954:,0.1292935:0.1560767:0.1287363:0.1570913:,0,0.11,-2.287912,-0.006993071,-0.02215935,0.4075885,0:0:0:0:0:,0,0,0.13,2,0,1:25:952,1:53:296,1:53:296,52.6,1,1,85952,113296,113296,-4212214,4728.69,0,1,52688,5,Street,1,0.887677,28.10055:5.398682:135.9988:,
0,0,30,1,7314,-0.1359645,64.7851,13.25389:0.01671155:-12.17314:,0.4534746:-0.01185398:-0.06247281:,0.2244159:0.2075605:0.0195997:0.09025446:,1502.669:2747.354:2552.559:3330.043:,37.19111:33.37761:32.62938:31.90619:,1.757522:2.263404E-18:1.137154E-41:7.375374E-39:,99.46013:99.43653:100:100:,0:0:0:0:,95.94445:72.11003:67.43363:62.91367:,-0.01163715:-0.01351412:-0.048384:0.02403076:,0.1231564:0.147502:0.1284039:0.154602:,0,0.11,-2.315325,-0.005243513,-0.02080424,0.411654,0:0:0:0:0:,0,0,0.13,2,0,1:26:152,1:53:296,1:53:296,52.6,1,1,86152,113296,113296,-4212415,4732.298,0,1,52688,5,Street,1,0.8891415,30.82378:5.40532:133.6342:,
1,0,30,3,6387,-0.2814382,65.57418,12.58026:0.007859646:-13.17289:,0.7423257:-0.03147738:0.4398767:,0.4863982:0.4216251:0.4467245:0.287336:,896.0972:2719.218:2411.187:4153.414:,37.1614:33.36959:32.61482:31.89867:,1.757522:2.263404E-18:1.137154E-41:7.375374E-39:,99.45988:99.43629:100:100:,0:0:0:0:,95.75877:72.05995:67.34264:62.86666:,-0.01295105:-0.01850348:-0.05352277:0.01806665:,0.112171:0.1478163:0.1223825:0.1602478:,0,0.11,-2.395216,-0.002387115,-0.0284831,0.4137774,0:0:0:0:0:,0,0,0.13,2,0,1:26:356,1:53:296,1:53:296,52.6,1,1,86356,113296,113296,-4212617,4735.969,0,1,52688,5,Street,1,0.8906243,33.46725:5.408629:131.088:,
1,0,30,3,5578,-0.4644298,67.86217,11.80112:-0.04034761:-14.69957:,0.9801457:0.01595761:0.1266298:,0.9355406:0.8599836:0.384971:0.3251252:,1039.243:3301.876:1776.254:4156.619:,37.13091:33.37431:32.61099:31.90285:,1.757522:2.263404E-18:1.137154E-41:7.375374E-39:,99.4595:99.43577:100:100:,0:0:0:0:,95.56819:72.08945:67.31867:62.89283:,-0.002826133:-0.02119428:-0.05970712:0.01830592:,0.1051061:0.1438217:0.1248535:0.1669047:,0,0.11,-2.500574,-0.0008203165,-0.03278884,0.4135051,0:0:0:0:0:,0,0,0.13,2,0,1:26:560,1:53:296,1:53:296,52.6,1,1,86560,113296,113296,-4212821,4739.758,0,1,52688,5,Street,1,0.8921452,35.98616:5.406718:128.2582:,
1,0,30,3,5724,-0.6665397,68.1058,10.24326:0.005084009:-15.90525:,1.03227:0.02803874:0.1216985:,1.544682:1.254309:0.4436601:0.3635178:,1116.904:3793.865:1915.356:4013.59:,37.10452:33.4081:32.604:31.91006:,1.757522:2.263404E-18:1.137154E-41:7.375374E-39:,99.45844:99.43484:100:100:,0:0:0:0:,95.40327:72.30064:67.27501:62.93787:,0.000345267:-0.02644245:-0.06213119:0.01052361:,0.1056049:0.158489:0.1129561:0.167868:,0,0.11,-2.608333,-0.005466102,-0.04105589,0.4131446,0:0:0:0:0:,0,0,0.13,2,0,1:26:764,1:53:296,1:53:296,52.6,1,1,86764,113296,113296,-4213028,4743.613,0,1,52688,5,Street,1,0.8936886,38.25792:5.403736:125.1399:,
1,0,30,3,5720,-0.8643357,68.51241,8.734011:-0.04306344:-16.90866:,0.9313508:-0.02730486:0.0745247:,1.839241:1.710393:0.3848761:0.3480652:,1133.246:3513.217:1909.675:3697.946:,37.08236:33.46514:32.5975:31.91826:,1.757522:2.263404E-18:1.137154E-41:7.375374E-39:,99.45734:99.43358:100:100:,0:0:0:0:,95.26478:72.65711:67.23437:62.98912:,0.02657737:-0.0242407:-0.0582725:0.01151874:,0.1051304:0.1512769:0.1158565:0.1647619:,0,0.11,-2.701826,-0.007785132,-0.03532793,0.4158707,0:0:0:0:0:,0,0,0.13,2,0,1:26:948,1:53:296,1:53:296,52.6,1,1,86948,113296,113296,-4213211,4747.11,0,1,52688,5,Street,1,0.8950815,40.03365:5.40496:122.1259:,
1,0,30,3,5716,-0.9,68.57082,7.191628:-0.06903222:-17.63749:,0.8774036:-0.005740438:0.05712077:,2.287961:1.8941:0.3665636:0.3014829:,980.4781:3424.813:1834.368:3935.108:,37.07003:33.54082:32.59011:31.92344:,1.757522:2.263404E-18:1.137154E-41:7.375374E-39:,99.45552:99.43201:100:100:,0:0:0:0:,95.18771:73.13013:67.18821:63.02149:,0.02887573:-0.02543587:-0.05905226:0.009783957:,0.1053438:0.1545973:0.1116726:0.162249:,0,0.11,-2.783885,-0.008856272,-0.03488646,0.416925,0:0:0:0:0:,0,0,0.13,2,0,1:27:168,1:53:296,1:53:296,52.6,1,1,87168,113296,113296,-4213429,4751.303,0,1,52688,5,Street,1,0.8967515,41.81804:5.392486:118.33:,
1,0,30,3,5728,-0.9,68.67404,5.636509:-0.05008994:-18.22432:,0.8829287:0.0242135:0.06601964:,2.27576:1.894101:0.3281177:0.2776417:,1024.086:3500.071:1981.578:4145.39:,37.06249:33.62167:32.58251:31.92766:,1.757522:2.263404E-18:1.137154E-41:7.375374E-39:,99.45362:99.43037:100:100:,0:0:0:0:,95.14056:73.63544:67.14068:63.04786:,0.03107144:-0.02379144:-0.05937155:0.01124644:,0.1061849:0.1534114:0.1153631:0.163743:,0,0.11,-2.865569,-0.006497933,-0.03187769,0.4149208,0:0:0:0:0:,0,0,0.13,2,0,1:27:356,1:53:296,1:53:296,52.6,1,1,87356,113296,113296,-4213618,4754.9,0,1,52688,5,Street,1,0.8981811,43.04739:5.381774:114.951:,
1,0,30,3,5848,-0.9,70.35622,4.290806:-0.06983473:-19.06642:,0.8053499:-0.03569644:0.2913662:,2.350706:1.881616:0.4595588:0.34407:,731.257:2885.651:2515.624:3971.234:,37.05537:33.69886:32.57713:31.93269:,1.757522:2.263404E-18:1.137154E-41:7.375374E-39:,99.45176:99.42878:100:100:,0:0:0:0:,95.09608:74.11788:67.10707:63.07929:,0.03871853:-0.02049072:-0.05653861:0.01608754:,0.1043421:0.1448362:0.1191174:0.1632695:,0,0.11,-2.951573,-0.003273597,-0.02442143,0.416482,0:0:0:0:0:,0,0,0.13,2,0,1:27:548,1:53:296,1:53:296,52.6,1,1,87548,113296,113296,-4213809,4758.594,0,1,52688,5,Street,1,0.8996527,44.02538:5.373919:111.3892:,
1,0,30,3,5984,-0.8789976,71.84113,2.712332:0.0224357:-19.77068:,0.8520387:0.009825913:0.3064511:,2.334652:1.887118:0.4805964:0.3307023:,539.9975:3192.338:2569.587:4571.367:,37.04913:33.77694:32.57403:31.9398:,1.757522:2.263404E-18:1.137154E-41:7.375374E-39:,99.4498:99.4271:100:100:,0:0:0:0:,95.05704:74.6059:67.08768:63.12373:,0.03432407:-0.02388895:-0.06161354:0.01472163:,0.1041433:0.1481132:0.118996:0.1701232:,0,0.11,-3.035965,0.002792726,-0.02961887,0.4125381,0:0:0:0:0:,0,0,0.13,2,0,1:27:768,1:53:296,1:53:296,52.6,1,1,87768,113296,113296,-4214031,4762.933,0,1,52688,5,Street,1,0.9013789,44.81706:5.367273:107.1249:,
1,0,30,3,6090,-0.6665123,73.63327,1.159023:0.06735995:-20.42071:,0.7788755:-0.03334743:0.2691647:,1.768391:1.594326:0.3959503:0.306113:,759.3733:2846.898:2133.766:4129.757:,37.03787:33.852:32.57181:31.94797:,1.757522:2.263404E-18:1.137154E-41:7.375374E-39:,99.44801:99.42549:100:100:,0:0:0:0:,94.98669:75.07497:67.07382:63.17482:,0.01305191:-0.01758852:-0.05961015:0.01776388:,0.1046134:0.1439438:0.1231569:0.1681763:,0,0.11,-3.111562,0.002951684,-0.02636725,0.4138041,0:0:0:0:0:,0,0,0.13,2,0,1:27:964,1:53:296,1:53:296,52.6,1,1,87964,113296,113296,-4214224,4766.89,0,1,52688,5,Street,1,0.9029495,45.20137:5.377841:103.1861:,
1,0,30,3,6269,-0.2680763,75.54308,-0.4207827:0.02457714:-20.97995:,0.8882083:0.001284783:0.3226441:,0.8891891:0.9816043:0.4440977:0.3267716:,592.798:3283.272:2348.245:4078.995:,37.02158:33.90781:32.56876:31.95484:,1.757522:2.263404E-18:1.137154E-41:7.375374E-39:,99.44673:99.42426:100:100:,0:0:0:0:,94.8849:75.42385:67.05474:63.21773:,-0.01539457:-0.02396121:-0.05727533:0.01529746:,0.1040797:0.144508:0.1200658:0.1662327:,0,0.11,3.08881,0.001832241,-0.0287484,0.4147553,0:0:0:0:0:,0,0,0.13,2,0,1:28:160,1:53:296,1:53:296,52.6,1,1,88160,113296,113296,-4214422,4770.942,0,1,52688,5,Street,1,0.9045709,45.29057:5.385445:99.13354:,
1,0,30,3,6434,-0.03113497,78.20402,-2.018282:0.06095823:-21.62929:,0.689768:0.02962933:0.4550967:,0.1720366:0.1483922:0.3596892:0.3472574:,1119.642:2496.936:2687.875:4152.625:,36.99482:33.92626:32.56712:31.96461:,1.757522:2.263404E-18:1.137154E-41:7.375374E-39:,99.44646:99.42391:100:100:,0:0:0:0:,94.71762:75.53912:67.04451:63.27879:,-0.02189429:-0.02538426:-0.05680694:0.02242688:,0.1051717:0.1416786:0.1283764:0.1675524:,0,0.11,3.01283,0.006107742,-0.0257882,0.4119945,0:0:0:0:0:,0,0,0.13,2,0,1:28:360,1:53:296,1:53:296,52.6,1,1,88360,113296,113296,-4214620,4775.201,0,1,52688,5,Street,1,0.9062659,45.05375:5.392994:94.88271:,
1,0,30,3,6605,-0.1471802,81.11816,-3.267475:0.06812996:-22.29455:,0.5227505:0.006666285:0.3797725:,0.3402268:0.312621:0.2302357:0.2073994:,1088.826:2558.662:2932.013:3570.428:,36.96416:33.92242:32.56458:31.9719:,1.757522:2.263404E-18:1.137154E-41:7.375374E-39:,99.44621:99.42368:100:100:,0:0:0:0:,94.52599:75.5151:67.02863:63.32436:,-0.01097824:-0.01738742:-0.05346815:0.02898494:,0.1049192:0.1308695:0.1352402:0.1660248:,0,0.11,2.987365,0.007878815,-0.02131033,0.4132886,0:0:0:0:0:,0,0,0.13,2,0,1:28:560,1:53:296,1:53:296,52.6,1,1,88560,113296,113296,-4214824,4779.619,0,1,52688,5,Street,1,0.908044,44.5293:5.409039:90.49713:,
1,0,30,3,6892,-0.2491045,83.65818,-4.485506:-0.05419822:-22.80131:,0.7290738:-0.0235605:0.4199623:,0.560307:0.5102757:0.3493694:0.2844787:,732.5318:2791.456:2716.926:3976.406:,36.93507:33.91985:32.56053:31.97418:,1.757522:2.263404E-18:1.137154E-41:7.375374E-39:,99.44576:99.42329:100:100:,0:0:0:0:,94.34418:75.49906:67.00332:63.33865:,-0.007397115:-0.01893338:-0.05126468:0.02193508:,0.1042443:0.1328095:0.1278484:0.1600873:,0,0.11,2.924111,0.00164692,-0.02351183,0.4170651,0:0:0:0:0:,0,0,0.13,2,0,1:28:764,1:53:296,1:53:296,52.6,1,1,88764,113296,113296,-4215027,4784.278,0,1,52688,5,Street,1,0.9099219,43.75742:5.411397:85.89906:,
1,0,30,3,7138,-0.3829526,85.85339,-6.291539:-0.02798689:-23.00328:,0.9148667:-0.01166739:0.3569593:,0.971544:0.8425687:0.4803558:0.4027182:,328.1943:3095.97:2499.208:4303.706:,36.90752:33.93341:32.55917:31.98319:,1.757522:2.263404E-18:1.137154E-41:7.375374E-39:,99.445:99.42261:100:100:,0:0:0:0:,94.17197:75.58381:66.99482:63.39492:,-0.01177969:-0.02421855:-0.05999808:0.01794084:,0.1035582:0.1464014:0.1232989:0.171255:,0,0.11,2.824829,0.001085939,-0.0334949,0.412322,0:0:0:0:0:,0,0,0.13,2,0,1:28:972,1:53:296,1:53:296,52.6,1,1,88972,113296,113296,-4215232,4789.172,0,1,52688,5,Street,1,0.9118928,42.64659:5.401928:81.13067:,
1,0,30,3,7374,0,87.92165,-8.239861:0.01305852:-22.99069:,0.8034701:-0.04205136:0.4128872:,0.211146:0.2099876:0.5766847:0.4820906:,381.3078:3022.691:2205.498:4278.13:,36.87959:33.95798:32.56186:32.00219:,1.757522:2.263404E-18:1.137154E-41:7.375374E-39:,99.44439:99.42197:100:100:,0:0:0:0:,93.99744:75.73741:67.0116:63.51367:,-0.03053536:-0.03228525:-0.06200242:0.01508954:,0.1038837:0.1488168:0.1194633:0.1705907:,0,0.11,2.731883,0.001412575,-0.03775304,0.4131279,0:0:0:0:0:,0,0,0.13,2,0,1:29:144,1:53:296,1:53:296,52.6,1,1,89144,113296,113296,-4215404,4793.312,0,1,52688,5,Street,1,0.9135609,41.41499:5.401399:77.17751:,
1,0,30,3,7466,0,90.72234,-9.93317:-0.001103688:-23.16042:,0.5900974:-0.06097053:0.4384357:,0.1747949:0.163234:0.3439128:0.3263292:,539.433:2683.884:2571.482:3974.488:,36.84811:33.96135:32.56676:32.02365:,1.757522:2.263404E-18:1.137154E-41:7.375374E-39:,99.44415:99.42175:100:100:,0:0:0:0:,93.80065:75.75845:67.04227:63.64783:,-0.02484307:-0.02732934:-0.05638545:0.0219378:,0.1041518:0.1406208:0.1276081:0.166757:,0,0.11,2.704041,0.002663819,-0.02962502,0.4138522,0:0:0:0:0:,0,0,0.13,2,0,1:29:348,1:53:296,1:53:296,52.6,1,1,89348,113296,113296,-4215611,4798.353,0,1,52688,5,Street,1,0.9155993,39.59661:5.40348:72.47625:,
1,0,30,3,7605,-0.1177989,93.64953,-10.96119:0.00715439:-23.59169:,0.3138433:0.01076431:0.3893944:,0.2483028:0.226149:0.194891:0.1792595:,1254.877:2144.366:3176.712:3833.225:,36.81759:33.95458:32.56686:32.03358:,1.757522:2.263404E-18:1.137154E-41:7.375374E-39:,99.44395:99.42158:100:100:,0:0:0:0:,93.60992:75.71613:67.04286:63.70992:,-0.006394445:-0.01459966:-0.04815547:0.02936296:,0.1099568:0.1293585:0.1390694:0.1603344:,0,0.11,2.704908,0.006627188,-0.01400132,0.4127927,0:0:0:0:0:,0,0,0.13,2,0,1:29:556,1:53:296,1:53:296,52.6,1,1,89556,113296,113296,-4215819,4803.666,0,1,52688,5,Street,1,0.9177536,37.43496:5.402069:67.6246:,
1,0,30,3,7826,0,96.38403,-11.62167:0.02377824:-24.11945:,0.1660765:0.01624245:0.3765646:,0.039835:0.02161739:0.1913064:0.1970349:,1631.611:2191.112:2947.74:3480.311:,36.78834:33.94138:32.56517:32.03669:,1.757522:2.263404E-18:1.137154E-41:7.375374E-39:,99.44387:99.42152:100:100:,0:0:0:0:,93.42712:75.63362:67.03234:63.72932:,-0.0029701:-0.01046112:-0.0436193:0.03437787:,0.1144153:0.1231436:0.1440869:0.155553:,0,0.11,2.684451,0.006501889,-0.007760083,0.4133701,0:0:0:0:0:,0,0,0.13,2,0,1:29:760,1:53:296,1:53:296,52.6,1,1,89760,113296,113296,-4216023,4809.041,0,1,52688,5,Street,1,0.9199418,35.13646:5.406198:62.76627:,
1,0,30,3,8055,-0.163113,98.95445,-12.43377:-0.01174387:-24.51439:,0.4766496:-0.01921147:0.3264295:,0.3279704:0.3028697:0.2279608:0.1872965:,1543.841:2577.996:2604.918:3503.272:,36.75971:33.92646:32.56303:32.03869:,1.757522:2.263404E-18:1.137154E-41:7.375374E-39:,99.44366:99.42133:100:100:,0:0:0:0:,93.24818:75.54035:67.01897:63.74181:,-0.0009134906:-0.01160124:-0.04585178:0.02947441:,0.109793:0.1250716:0.1382162:0.156025:,0,0.11,2.665772,0.004098256,-0.01288908,0.4157262,0:0:0:0:0:,0,0,0.13,2,0,1:29:964,1:53:296,1:53:296,52.6,1,1,89964,113296,113296,-4216226,4814.571,0,1,52688,5,Street,1,0.9221975,32.69746:5.40947:57.80203:,
0,0,30,1,7924,0,100.4433,-13.65346:-0.04089115:-24.33192:,0.5658456:-0.03753997:-0.1210843:,0.1086831:0.0912359:0.1840291:0.2544996:,1539.789:2857.426:2065.219:3292.267:,36.73428:33.92286:32.5611:32.04395:,1.757522:2.263404E-18:1.137154E-41:7.375374E-39:,99.44329:99.42099:100:100:,0:0:0:0:,93.08926:75.51785:67.00688:63.77467:,-0.01964112:-0.02563895:-0.05320877:0.02358761:,0.1061743:0.1397476:0.1307052:0.1647538:,0,0.11,2.593425,0.0009214865,-0.02649576,0.413424,0:0:0:0:0:,0,0,0.13,2,0,1:30:164,1:53:296,1:53:296,52.6,1,1,90164,113296,113296,-4216425,4820.122,0,1,52688,5,Street,1,0.9244623,30.08942:5.406443:52.8998:,
0,0,30,1,6900,0,99.92913,-14.56669:0.008494917:-23.62886:,0.4789476:-0.01163044:-0.05557878:,0.09771474:0.0964185:0.08853614:0.1627414:,1527.769:2953.91:2187.327:3468.89:,36.70683:33.91679:32.55494:32.05004:,1.757522:2.263404E-18:1.137154E-41:7.375374E-39:,99.44315:99.42085:100:100:,0:0:0:0:,92.9177:75.47993:66.96835:63.81274:,-0.02351675:-0.01897113:-0.05236148:0.01953156:,0.1227063:0.1553809:0.1233211:0.1584084:,0,0.11,2.56602,-0.008421118,-0.02655087,0.4107242,0:0:0:0:0:,0,0,0.13,2,0,1:30:364,1:53:296,1:53:296,52.6,1,1,90364,113296,113296,-4216625,4825.684,0,1,52688,5,Street,1,0.9267309,27.26831:5.402906:48.10125:,
1,0,30,4,5932,0,102.0766,-15.34458:0.01555473:-23.84381:,0.1219995:0.005391586:0.3916666:,0.04141273:0.02639615:0.1628572:0.1732386:,1356.8:1696.298:3253.499:3514.002:,36.67883:33.90631:32.54848:32.05267:,1.757522:2.263404E-18:1.137154E-41:7.375374E-39:,99.44307:99.42078:100:100:,0:0:0:0:,92.74269:75.41444:66.92802:63.82919:,-0.00691398:-0.01105938:-0.04424631:0.03228709:,0.1188423:0.1329841:0.1412969:0.1552206:,0,0.11,2.565575,0.002892659,-0.009335316,0.4117136,0:0:0:0:0:,0,0,0.13,2,0,1:30:560,1:53:296,1:53:296,52.6,1,1,90560,113296,113296,-4216822,4831.167,0,1,52688,5,Street,1,0.9289614,24.34237:5.404475:43.47021:,
1,0,30,4,6061,0.07248382,104.1863,-15.62599:-0.03265215:-24.35955:,-0.1817543:-0.00901897:0.3249528:,0.1218045:0.1397306:0.1438186:0.1578687:,2076.052:1481.832:3541.955:3244.756:,36.64977:33.88939:32.54529:32.05331:,1.757522:2.263404E-18:1.137154E-41:7.375374E-39:,99.44302:99.42072:100:100:,0:0:0:0:,92.56108:75.30867:66.90807:63.83318:,0.003347489:-0.003487027:-0.03668495:0.03858897:,0.1227836:0.1206745:0.1477807:0.1465792:,0,0.11,2.572484,0.002737448,0.003953415,0.4137478,0:0:0:0:0:,0,0,0.13,2,0,1:30:756,1:53:296,1:53:296,52.6,1,1,90756,113296,113296,-4217019,4836.775,0,1,52688,5,Street,1,0.9312404,21.30237:5.40301:38.75763:,
1,0,30,4,6189,0,106.2672,-15.71333:0.03692139:-24.98884:,-0.1134061:-0.01041317:0.2888023:,0.01721141:0.03208354:0.158507:0.1515175:,1746.119:1545.2:3133.231:2943.706:,36.62229:33.87117:32.5433:32.05233:,1.757522:2.263404E-18:1.137154E-41:7.375374E-39:,99.44299:99.42068:100:100:,0:0:0:0:,92.3893:75.19479:66.89562:63.82708:,0.008279235:0.002237586:-0.03661826:0.04416673:,0.1286859:0.1195586:0.153149:0.1460714:,0,0.11,2.585898,0.003862223,0.006004118,0.4121275,0:0:0:0:0:,0,0,0.13,2,0,1:30:964,1:53:296,1:53:296,52.6,1,1,90964,113296,113296,-4217224,4842.849,0,1,52688,5,Street,1,0.9337072,18.04432:5.403268:33.63171:,
1,0,30,4,6308,0,108.3831,-15.91412:-0.00307849:-25.55654:,-0.02247985:-0.005565:0.2966568:,0.01027191:0.01843141:0.1527084:0.1495349:,1971.572:1884.843:3237.305:3081.629:,36.59394:33.85209:32.54165:32.05134:,1.757522:2.263404E-18:1.137154E-41:7.375374E-39:,99.44296:99.42064:100:100:,0:0:0:0:,92.21212:75.07558:66.88528:63.82088:,0.005910027:-0.001655843:-0.03499831:0.03945979:,0.1233436:0.1199131:0.1484171:0.1449362:,0,0.11,2.585854,0.002992915,0.003778263,0.4142156,0:0:0:0:0:,0,0,0.13,2,0,1:31:152,1:53:296,1:53:296,52.6,1,1,91152,113296,113296,-4217413,4848.447,0,1,52688,5,Street,1,0.9359813,15.0763:5.406436:28.88518:,
1,0,30,4,6438,0,110.4733,-16.20448:-0.007881605:-26.05971:,-0.008020192:-0.00448715:0.2742163:,0.01003619:0.009778487:0.1572503:0.1567929:,2286.525:1956.185:2864.749:2902.731:,36.56508:33.83283:32.53984:32.05097:,1.757522:2.263404E-18:1.137154E-41:7.375374E-39:,99.44296:99.42062:100:100:,0:0:0:0:,92.03173:74.95522:66.87398:63.81858:,0.003537936:-0.001582212:-0.03715646:0.0378905:,0.1230085:0.1214833:0.1469899:0.1466291:,0,0.11,2.585223,0.002213687,0.001193512,0.4140944,0:0:0:0:0:,0,0,0.13,2,0,1:31:352,1:53:296,1:53:296,52.6,1,1,91352,113296,113296,-4217612,4854.516,0,1,52688,5,Street,1,0.9384465,11.86986:5.406595:23.73186:,
1,0,30,4,6573,0,112.4784,-16.5035:0.1015618:-26.52946:,0.01010075:0.008868645:0.2559174:,0.006575717:0.005292404:0.169714:0.1680035:,2334.217:2602.673:2760.553:2727.155:,36.53704:33.81443:32.53848:32.05151:,1.757522:2.263404E-18:1.137154E-41:7.375374E-39:,99.44294:99.42062:100:100:,0:0:0:0:,91.85648:74.84022:66.86552:63.82193:,0:-0.003718641:-0.04039161:0.04011612:,0.1279264:0.1291993:0.1513992:0.1522493:,0,0.11,2.585072,0.005245554,0.0009635422,0.4078784,0:0:0:0:0:,0,0,0.13,2,0,1:31:548,1:53:296,1:53:296,52.6,1,1,91548,113296,113296,-4217809,4860.579,0,1,52688,5,Street,1,0.9409083,8.669192:5.41463:18.58446:,
1,0,30,4,6700,0,114.5446,-16.813:0.1033498:-27.01286:,-0.0003460795:-0.2805168:0.09698136:,0.01724231:0.02109858:0.1867868:0.1908492:,1662.84:1419.2:1033.884:844.9121:,36.50824:33.79558:32.53795:32.05274:,1.757522:2.263404E-18:1.137154E-41:7.375374E-39:,99.44292:99.42059:100:100:,0:0:0:0:,91.67647:74.72237:66.86217:63.82962:,0.005859383:-0.004085257:-0.04129808:0.04230646:,0.107342:0.1058556:0.1539558:0.1534908:,0,0.11,2.585372,0.003010346,0.005865295,0.4225092,0:0:0:0:0:,0,0,0.13,2,0,1:31:752,1:53:296,1:53:296,52.6,1,1,91752,113296,113296,-4218012,4867.005,0,1,52688,5,Street,1,0.9435184,5.274005:5.448925:13.12821:,
1,0,30,4,6786,0,116.7203,-17.11546:-0.2411221:-27.53561:,-0.006632268:0.06146118:0.2838117:,0.009950832:0.01208757:0.1413975:0.1403689:,1828.127:1761.431:3338.669:3157.041:,36.47915:33.77606:32.53556:32.05199:,1.757522:2.263404E-18:1.137154E-41:7.375374E-39:,99.4429:99.42057:100:100:,0:0:0:0:,91.49467:74.60036:66.84727:63.82498:,0.004708818:-0.003521048:-0.03419704:0.03377076:,0.1209445:0.1196998:0.1414255:0.1431491:,0,0.11,2.585742,-0.001921286,0.001573502,0.4172406,0:0:0:0:0:,0,0,0.13,2,0,1:31:952,1:53:296,1:53:296,52.6,1,1,91952,113296,113296,-4218214,4873.412,0,1,52688,5,Street,1,0.946122,1.887861:5.417811:7.685057:,
1,0,30,4,6908,0,118.8169,-17.41455:0.02309477:-28.03646:,0.004191697:-0.05667412:0.3017729:,0.01092926:0.01128222:0.1453637:0.1394913:,1511.216:1389.683:3272.15:3509.623:,36.45129:33.75789:32.53601:32.05422:,1.757522:2.263404E-18:1.137154E-41:7.375374E-39:,99.44289:99.42056:100:100:,0:0:0:0:,91.32059:74.48682:66.85007:63.83887:,0.003275492:-0.002696622:-0.04596867:0.0446434:,0.1252137:0.1245977:0.1587826:0.1591372:,0,0.11,2.585579,0.005075809,-0.001195282,0.4064727,0:0:0:0:0:,0,0,0.13,2,0,1:32:152,1:53:296,1:53:296,52.6,1,1,92152,113296,113296,-4218413,4879.951,0,1,52688,5,Street,1,0.9487768,-1.56079:5.396001:2.134476:,
1,0,30,4,7037,0,120.8483,-17.71745:-0.03645346:-28.51258:,0.006170258:0.09631807:0.2861355:,0.00717869:0.005017428:0.1463363:0.1476096:,2055.239:1997.643:3390.786:3390.544:,36.42334:33.7397:32.53591:32.0561:,1.757522:2.263404E-18:1.137154E-41:7.375374E-39:,99.44288:99.42054:100:100:,0:0:0:0:,91.14585:74.37315:66.84946:63.85061:,-0.000345267:-0.002583742:-0.03781648:0.03796909:,0.1300136:0.1324601:0.1468921:0.146824:,0,0.11,2.58548,0.00249991,-0.0009257095,0.4088221,0:0:0:0:0:,0,0,0.13,2,0,1:32:352,1:53:296,1:53:296,52.6,1,1,92352,113296,113296,-4218614,4886.598,0,1,52688,5,Street,1,0.9514741,-5.068756:5.387261:-3.512786:,
1,0,30,4,7167,0,122.8675,-18.01242:0.06891339:-28.98959:,-0.005226471:-0.09988878:0.2363895:,0.01171651:0.01270429:0.1660073:0.1638562:,1919.578:2068.161:2558.901:2554.956:,36.39587:33.72186:32.53715:32.05914:,1.757522:2.263404E-18:1.137154E-41:7.375374E-39:,99.44287:99.42053:100:100:,0:0:0:0:,90.97416:74.2616:66.85717:63.86963:,0.002606709:-0.004200357:-0.0404506:0.03960608:,0.1222543:0.1221894:0.1521743:0.1521545:,0,0.11,2.585728,0.0039931,-0.0003695926,0.4120188,0:0:0:0:0:,0,0,0.13,2,0,1:32:552,1:53:296,1:53:296,52.6,1,1,92552,113296,113296,-4218814,4893.364,0,1,52688,5,Street,1,0.9542258,-8.639332:5.40027:-9.257666:,
1,0,30,4,7274,0,124.9018,-18.30503:0.01713101:-29.47313:,0.0005524009:-0.08506451:0.2627184:,0.01172505:0.01011918:0.1547751:0.1527412:,1583.744:1695.091:2842.608:2885.533:,36.36825:33.70385:32.53774:32.06155:,1.757522:2.263404E-18:1.137154E-41:7.375374E-39:,99.44285:99.42051:100:100:,0:0:0:0:,90.80154:74.14904:66.86088:63.8847:,0.002042627:-0.004501734:-0.0388016:0.0365759:,0.1195055:0.1207483:0.1488226:0.1483239:,0,0.11,2.585716,0.003318854,-0.001473905,0.4149065,0:0:0:0:0:,0,0,0.13,2,0,1:32:748,1:53:296,1:53:296,52.6,1,1,92748,113296,113296,-4219012,4900.1,0,1,52688,5,Street,1,0.9569631,-12.19409:5.407022:-14.97979:,
1,0,30,4,7379,0,126.9024,-18.60139:0.02300761:-29.94325:,-0.007100821:0.02962721:0.286349:,0.005748502:0.01283979:0.1437211:0.1423554:,1553.16:1902.679:3296.504:3391.529:,36.34093:33.68613:32.53858:32.06426:,1.757522:2.263404E-18:1.137154E-41:7.375374E-39:,99.44283:99.42049:100:100:,0:0:0:0:,90.63078:74.03831:66.86613:63.90161:,0.003571471:-0.0009134906:-0.03771702:0.03875547:,0.1258336:0.1219559:0.1480462:0.1484328:,0,0.11,2.585751,0.004081366,0.0001174931,0.4121976,0:0:0:0:0:,0,0,0.13,2,0,1:32:952,1:53:296,1:53:296,52.6,1,1,92952,113296,113296,-4219212,4907.225,0,1,52688,5,Street,1,0.9598579,-15.95392:5.406614:-21.03216:,
1,0,30,4,7487,0,128.8768,-18.889:-0.03180064:-30.41022:,-0.0001837239:0.06954405:0.2686648:,0.01078828:0.0125967:0.1385666:0.1410766:,1904.803:2080.994:3330.11:3162.011:,36.31366:33.6685:32.53979:32.06727:,1.757522:2.263404E-18:1.137154E-41:7.375374E-39:,99.44282:99.42048:100:100:,0:0:0:0:,90.46037:73.9281:66.87368:63.92043:,0.001983408:-0.003875615:-0.03702305:0.03768698:,0.1222868:0.1221732:0.1470748:0.1468749:,0,0.11,2.585803,0.00211745,-0.0002160477,0.413569,0:0:0:0:0:,0,0,0.13,2,0,1:33:148,1:53:296,1:53:296,52.6,1,1,93148,113296,113296,-4219410,4914.178,0,1,52688,5,Street,1,0.9626831,-19.62274:5.405179:-26.93909:,
1,0,30,4,7604,0,130.8005,-19.16814:0.02905707:-30.86588:,-0.0001865327:-0.01060546:0.2664027:,0.008037073:0.009440055:0.145657:0.141896:,1589.461:1488.845:3008.524:3284.731:,36.28691:33.65133:32.54158:32.07081:,1.757522:2.263404E-18:1.137154E-41:7.375374E-39:,99.44279:99.42046:100:100:,0:0:0:0:,90.29317:73.82082:66.88488:63.94255:,0.003400487:-0.003293639:-0.03925074:0.03822574:,0.1232022:0.1231668:0.1491473:0.1489732:,0,0.11,2.585941,0.003762401,0.0001961796,0.4128413,0:0:0:0:0:,0,0,0.13,2,0,1:33:348,1:53:296,1:53:296,52.6,1,1,93348,113296,113296,-4219611,4921.382,0,1,52688,5,Street,1,0.9656097,-23.42352:5.404756:-33.05843:,
1,0,30,4,7729,0,132.6738,-19.43647:-0.08554745:-31.31166:,-0.001002461:-0.07031044:0.2522947:,0.01188931:0.01239142:0.1577043:0.1564361:,1897.208:1868.677:2914.733:2815.604:,36.26007:33.63386:32.54316:32.07414:,1.757522:2.263404E-18:1.137154E-41:7.375374E-39:,99.44278:99.42044:100:100:,0:0:0:0:,90.12541:73.7116:66.89476:63.96338:,0.004858342:-0.003875615:-0.03515976:0.03516654:,0.1203758:0.1192882:0.1441721:0.1448026:,0,0.11,2.585966,-7.210003E-05,-0.002336179,0.4170027,0:0:0:0:0:,0,0,0.13,2,0,1:33:552,1:53:296,1:53:296,52.6,1,1,93552,113296,113296,-4219813,4928.838,0,1,52688,5,Street,1,0.9686388,-27.35718:5.400986:-39.39353:,
1,0,30,4,7810,0,134.5661,-19.71529:0.107164:-31.75723:,0.008527488:0.01486014:0.260137:,0.009126908:0.008175347:0.134583:0.1316619:,1641.707:1579.295:3264.953:3500.329:,36.23398:33.61748:32.54539:32.07829:,1.757522:2.263404E-18:1.137154E-41:7.375374E-39:,99.44276:99.42043:100:100:,0:0:0:0:,89.96236:73.60925:66.90868:63.98931:,0.000345267:-0.00185932:-0.04524174:0.04415323:,0.126902:0.1282592:0.1570018:0.1569186:,0,0.11,2.586067,0.006554222,-0.0007710592,0.4059348,0:0:0:0:0:,0,0,0.13,2,0,1:33:752,1:53:296,1:53:296,52.6,1,1,93752,113296,113296,-4220011,4936.257,0,1,52688,5,Street,1,0.9716498,-31.26848:5.396107:-45.69487:,
1,0,30,4,7898,0,136.381,-19.97952:0.09149534:-32.18661:,0.004778974:0.2301945:0.2737721:,0.006676398:0.007806952:0.1174423:0.1169782:,2015.674:2185.056:3991.404:3936.05:,36.20787:33.60093:32.54758:32.08222:,1.757522:2.263404E-18:1.137154E-41:7.375374E-39:,99.44275:99.42041:100:100:,0:0:0:0:,89.79922:73.50578:66.92236:64.01385:,0:-0.003029707:-0.03977132:0.03918384:,0.1312109:0.1326168:0.1497592:0.1507117:,0,0.11,2.586369,0.006068361,0.00142547,0.4055357,0:0:0:0:0:,0,0,0.13,2,0,1:33:948,1:53:296,1:53:296,52.6,1,1,93948,113296,113296,-4220211,4943.623,0,1,52688,5,Street,1,0.9746436,-35.15346:5.407009:-51.95323:,
1,0,30,4,8052,0,138.0704,-20.2232:0.01055463:-32.58781:,-0.005683698:-0.09716278:0.2445611:,0.01384404:0.01473719:0.1690549:0.1668452:,2077.909:2033.448:2705.979:2819.773:,36.18171:33.58427:32.55031:32.08654:,1.757522:2.263404E-18:1.137154E-41:7.375374E-39:,99.44274:99.42039:100:100:,0:0:0:0:,89.63566:73.40173:66.93944:64.04087:,0.003201876:-0.003653964:-0.03609516:0.03642236:,0.1200421:0.1201569:0.1456957:0.1443738:,0,0.11,2.586601,0.001763594,0.004578438,0.416461,0:0:0:0:0:,0,0,0.13,2,0,1:34:148,1:53:296,1:53:296,52.6,1,1,94148,113296,113296,-4220411,4951.237,0,1,52688,5,Street,1,0.9777361,-39.16992:5.431694:-58.4239:,
1,0,30,4,8129,0,139.8423,-20.4715:-0.1776233:-33.01253:,-0.00144098:0.107717:0.2370876:,0.002820515:0.007457825:0.1502313:0.1405378:,2629.133:2606.952:2875.56:3063.703:,36.15534:33.5671:32.55166:32.08949:,1.757522:2.263404E-18:1.137154E-41:7.375374E-39:,99.44272:99.42036:100:100:,0:0:0:0:,89.47086:73.29437:66.94786:64.05929:,0.002804963:-0.001423572:-0.03453187:0.03351915:,0.1263909:0.1236975:0.1399664:0.1419398:,0,0.11,2.586499,-0.002344701,-0.0002030935,0.4149375,0:0:0:0:0:,0,0,0.13,2,0,1:34:348,1:53:296,1:53:296,52.6,1,1,94348,113296,113296,-4220610,4958.947,0,1,52688,5,Street,1,0.9808691,-43.23547:5.412113:-64.97704:,
0,0,30,1,8170,0,141.5096,-20.71334:0.0516564:-33.40795:,-0.0003237501:-0.1562355:0.03484582:,0.01670778:0.01259002:0.05638245:0.06286383:,1972.347:2036.298:2091.614:2152.997:,36.13016:33.55143:32.55512:32.09488:,1.757522:2.263404E-18:1.137154E-41:7.375374E-39:,99.44271:99.42036:100:100:,0:0:0:0:,89.31349:73.19645:66.96953:64.09302:,0.004394535:-0.005736014:-0.04512693:0.04321557:,0.1204281:0.1226641:0.1566685:0.1572259:,0,0.11,2.586362,0.002463684,-0.002486005,0.4108033,0:0:0:0:0:,0,0,0.13,2,0,1:34:544,1:53:296,1:53:296,52.6,1,1,94544,113296,113296,-4220808,4966.604,0,1,52688,5,Street,1,0.9839786,-47.26814:5.407323:-71.48189:,
0,0,30,1,7111,0,140.9329,-20.63157:-0.01604331:-33.27021:,-0.003515601:0.08211599:-0.08013096:,0.001495013:0.0009772921:0.03869886:0.03707442:,2314.74:2165.482:3023.456:3085.988:,36.10508:33.53582:32.54991:32.09163:,1.757522:2.263404E-18:1.137154E-41:7.375374E-39:,99.4427:99.42034:100:100:,0:0:0:0:,89.15674:73.09885:66.93696:64.07266:,-0.00109183:0.001726335:-0.03620236:0.03522921:,0.1399934:0.1394476:0.1429724:0.1423246:,0,0.11,2.586398,-0.006721433,-0.0007270803,0.4087591,0:0:0:0:0:,0,0,0.13,2,0,1:34:744,1:53:296,1:53:296,52.6,1,1,94744,113296,113296,-4221006,4974.448,0,1,52688,5,Street,1,0.9871684,-51.40459:5.400906:-78.15205:,
1,0,30,5,6522,0,141.4816,-20.71434:0.01886518:-33.3982:,0.0001922995:0.06824106:0.1500504:,0.009035232:0.004039123:0.1002285:0.1049947:,2094.915:1857.364:3649.238:3358.731:,36.08075:33.52096:32.54365:32.08727:,1.757522:2.263404E-18:1.137154E-41:7.375374E-39:,99.44269:99.42034:100:100:,0:0:0:0:,89.00468:73.00598:66.89779:64.04543:,0.0004882813:-0.00059802:-0.0349301:0.03557275:,0.1344877:0.1352734:0.1432507:0.1438707:,0,0.11,2.5864,-0.002484017,-0.0006688074,0.4097838,0:0:0:0:0:,0,0,0.13,2,0,1:34:948,1:53:296,1:53:296,52.6,1,1,94948,113296,113296,-4221208,4982.438,0,1,52688,5,Street,1,0.9904174,-55.61454:5.401769:-84.94109:,
1,0,30,5,6520,0,142.8841,-20.9193:-0.008992003:-33.72955:,-0.004985966:-0.06629673:0.1904776:,0.008276084:0.01047173:0.1324221:0.132363:,2054.128:1962.657:2854.523:2798.244:,36.05579:33.50533:32.54302:32.08843:,1.757522:2.263404E-18:1.137154E-41:7.375374E-39:,99.44267:99.42033:100:100:,0:0:0:0:,88.84866:72.90829:66.89386:64.0527:,0.001544081:0:-0.03665568:0.03668495:,0.1257172:0.1238399:0.1449174:0.1448306:,0,0.11,2.586584,0.0001517746,0.0008729316,0.4144559,0:0:0:0:0:,0,0,0.13,2,0,1:35:148,1:53:296,1:53:296,52.6,1,1,95148,113296,113296,-4221412,4990.331,0,1,52688,5,Street,1,0.9936257,-59.77423:5.407898:-91.64749:,
